[
{"name":"Cesfam Las Caña","lat":-33.057905,"lng": -71.608061,"tipo":"hospital"},
{"name":"Cesfam Placilla","lat":-33.112836,"lng": -71.566221,"tipo":"hospital"},
{"name":"Cesfam Quebrada Verde","lat":-33.041988,"lng": -71.645689,"tipo":"hospital"},
{"name":"Cesfam Jean y Marie Thierry","lat":-33.052449,"lng": -71.609813,"tipo":"hospital"},
{"name":"Cesfam Consultorio Plaza Justicia","lat":-33.039499,"lng": -71.629609,"tipo":"hospital"},
{"name":"Cesfam Mena","lat":-33.048952,"lng": -71.631207,"tipo":"hospital"},
{"name":"Cesfam Barón","lat":-33.039359,"lng": -71.600873,"tipo":"hospital"},
{"name":"Cesfam Cordillera","lat":-33.043236,"lng": -71.636732,"tipo":"hospital"},
{"name":"Cesfam Padre Damián Molokai","lat":-33.057793,"lng": -71.561823,"tipo":"hospital"},
{"name":"Cesfam Puertas Negras","lat":-33.058215,"lng": -71.638693,"tipo":"hospital"},
{"name":"Cesfam Nueva Aurora","lat":-33.047810,"lng": -71.564260,"tipo":"hospital"},
{"name":"Cesfam Placeres","lat":-33.045522,"lng": -71.583482,"tipo":"hospital"},
{"name":"Hospital Dr. Eduardo Pereira","lat":-33.056592,"lng":-71.589991,"tipo":"hospital"},
{"name":"Clínica Ciudad del Mar","lat":-33.0097887,"lng":-71.54957759999999,"tipo":"hospital"},
{"name":"Clínica Bupa Reñaca","lat":-32.98345140000001,"lng":-71.53406629999999,"tipo":"hospital"},
{"name":"Clínica Los Carrera","lat":-33.0487923,"lng":-71.4361059,"tipo":"hospital"},
{"name":"Hospital Dr. Gustavo Fricke","lat":-33.029526,"lng":-71.54239,"tipo":"hospital"},
{"name":"Hospital de Niños Viña del Mar","lat":-33.0285035,"lng":-71.539614,"tipo":"hospital"},
{"name":"Hospital Clínico Viña del Mar","lat":-33.0290142,"lng":-71.53903919999999,"tipo":"hospital"},
{"name":"Centromed","lat":-33.0185171,"lng":-71.5555184,"tipo":"hospital"},
{"name":"Clínica Miraflores","lat":-33.0274083,"lng":-71.53162379999999,"tipo":"hospital"},
{"name":"Clínica RedSalud Valparaíso - Servicios de Urgencia","lat":-33.0456161,"lng":-71.6124165,"tipo":"hospital"},
{"name":"Hospital Sanatorio Marítimo San Juan de Dios","lat":-32.994527,"lng":-71.52039500000001,"tipo":"hospital"},
{"name":"Clinica ISV :: Red Oftalmológica ISV","lat":-33.0202431,"lng":-71.5428601,"tipo":"hospital"},
{"name":"Centro de Salud Familiar Cienfuegos","lat":-33.0042766,"lng":-71.5406071,"tipo":"hospital"},
{"name":"Hospital de Quilpué","lat":-33.0511018,"lng":-71.43359079999999,"tipo":"hospital"},
{"name":"Capredena","lat":-33.0446616,"lng":-71.6221401,"tipo":"hospital"},
{"name":"IMAVIL Centro Médico","lat":-33.0434405,"lng":-71.3786567,"tipo":"hospital"},
{"name":"ERGOMEDICA Centro Clinico","lat":-33.01083799999999,"lng":-71.547654,"tipo":"hospital"},
{"name":"RIOS Y CIA LTDA","lat":-33.024019,"lng":-71.5571757,"tipo":"hospital"},
{"name":"Centro Médico Asomel","lat":-33.0492774,"lng":-71.6160441,"tipo":"hospital"},
{"name":"Banco Falabella","lat":-33.024706,"lng":-71.5541795,"tipo":"bank"},
{"name":"Work/Café Santander","lat":-33.0143562,"lng":-71.5499703,"tipo":"bank"},
{"name":"Opticas Rotter & Krauss","lat":-33.0086617,"lng":-71.5485601,"tipo":"bank"},
{"name":"Banco Santander","lat":-33.04573509999999,"lng":-71.6069765,"tipo":"bank"},
{"name":"Banco Condell","lat":-33.046662,"lng":-71.6202965,"tipo":"bank"},
{"name":"Banco de Chile - Reñaca","lat":-32.9701141,"lng":-71.54401109999999,"tipo":"bank"},
{"name":"Banco Scotiabank","lat":-33.0126637,"lng":-71.5497219,"tipo":"bank"},
{"name":"Banco Condell","lat":-33.0228595,"lng":-71.5598854,"tipo":"bank"},
{"name":"Banco Ripley","lat":-33.00879,"lng":-71.54822990000001,"tipo":"bank"},
{"name":"Banco Santander Chile","lat":-33.01426590000001,"lng":-71.5549803,"tipo":"bank"},
{"name":"Banco de Chile - Viña del Mar - Marina Arauco","lat":-33.0086897,"lng":-71.5484154,"tipo":"bank"},
{"name":"ServiEstado","lat":-33.03877969999999,"lng":-71.62761909999999,"tipo":"bank"},
{"name":"Banco Corpbanca","lat":-33.0397957,"lng":-71.62792540000001,"tipo":"bank"},
{"name":"Banco de Chile","lat":-33.0444348,"lng":-71.3736681,"tipo":"bank"},
{"name":"Banco Santander Chile","lat":-33.0475246,"lng":-71.4445819,"tipo":"bank"},
{"name":"BancoEstado - Sucursal Viña del Mar Mercado","lat":-33.02558700000001,"lng":-71.548307,"tipo":"bank"},
{"name":"Banco Paris","lat":-33.0429216,"lng":-71.6050197,"tipo":"bank"},
{"name":"Banco de Chile","lat":-33.0051724,"lng":-71.5502113,"tipo":"bank"},
{"name":"Banco Santander","lat":-32.9857111,"lng":-71.2759015,"tipo":"bank"},
{"name":"Quinta Comisaría Viña del Mar","lat":-33.0229997,"lng":-71.5176604,"tipo":"police"},
{"name":"Primera Comisaría Valparaíso Sur","lat":-33.029401,"lng":-71.63753299999999,"tipo":"police"},
{"name":"Policia De Investigaciones","lat":-33.03784219999999,"lng":-71.6330497,"tipo":"police"},
{"name":"PDI","lat":-33.0380981,"lng":-71.6328565,"tipo":"police"},
{"name":"Subcomisaría Placilla","lat":-33.1144587,"lng":-71.5768843,"tipo":"police"},
{"name":"Subcomisaria Gomez Carreño","lat":-32.9992946,"lng":-71.51935540000001,"tipo":"police"},
{"name":"Tenencia Carabineros Reñaca","lat":-32.9696053,"lng":-71.5423501,"tipo":"police"},
{"name":"Tenencia Reñaca Alto","lat":-32.99782320000001,"lng":-71.4860218,"tipo":"police"},
{"name":"Cuarta Comisaria de Carabineros, Concon","lat":-32.928966,"lng":-71.5168875,"tipo":"police"},
{"name":"Carabineros Quilpué","lat":-33.0553184,"lng":-71.4385782,"tipo":"police"},
{"name":"Tenencia de Carabineros","lat":-33.04623060000001,"lng":-71.4047465,"tipo":"police"},
{"name":"Carabineros Villa Alemana","lat":-33.0436521,"lng":-71.3709416,"tipo":"police"},
{"name":"Brigada de Investigación Criminal Quilpué","lat":-33.0460319,"lng":-71.35916809999999,"tipo":"police"},
{"name":"Subcomisaría Carabineros Quintero","lat":-32.7870317,"lng":-71.5288272,"tipo":"police"},
{"name":"Sub Comisaría De Carabineros El Quisco","lat":-33.3977473,"lng":-71.69454809999999,"tipo":"police"},
{"name":"Brigada de Investigación Criminal Valparaíso","lat":-33.0378825,"lng":-71.6329939,"tipo":"police"},
{"name":"Brigada de Delitos Económicos Valparaíso","lat":-33.0378791,"lng":-71.6330065,"tipo":"police"},
{"name":"Labocar/ Carabineros Valparaíso","lat":-33.0459908,"lng":-71.6312085,"tipo":"police"},
{"name":"Brigada de Delitos Sexuales Valparaíso","lat":-33.043108,"lng":-71.640593,"tipo":"police"},
{"name":"Segunda Comisaría Valparaíso Central","lat":-33.0482386,"lng":-71.6187436,"tipo":"police"},
{"name":"Escuela Básica Chorrillos","lat":-33.03539,"lng":-71.53142,"tipo":"school"},
{"name":"Colegio Nueva Era Siglo XXI","lat":-33.1266494,"lng":-71.5705498,"tipo":"school"},
{"name":"Liceo Juan XXIII El Belloto","lat":-33.043854,"lng":-71.411386,"tipo":"school"},
{"name":"Escuela Básica Gaspar Cabrales","lat":-33.05755,"lng":-71.41098,"tipo":"school"},
{"name":"Colegio Blaise Pascal","lat":-33.032948,"lng":-71.407039,"tipo":"school"},
{"name":"Escuela Básica Latina Inés Gallardo Orellana","lat":-33.0461208,"lng":-71.3684619,"tipo":"school"},
{"name":"Escuela Basica Superior Mixta 88","lat":-32.9858741,"lng":-71.2734976,"tipo":"school"},
{"name":"Saint Gregory College","lat":-32.9966569,"lng":-71.4887157,"tipo":"school"},
{"name":"Colegio Paula Vivanco","lat":-33.0092848,"lng":-71.25444569999999,"tipo":"school"},
{"name":"Escuela Básica Estado de Israel","lat":-33.0379767,"lng":-71.6409673,"tipo":"school"},
{"name":"Escuela Doctor Ernesto Quiroz Weber","lat":-33.0519634,"lng":-71.5711705,"tipo":"school"},
{"name":"Escuela Básica Arturo Prat Chacón","lat":-33.0195402,"lng":-71.5153449,"tipo":"school"},
{"name":"Colegio Nazca Belén","lat":-33.0656627,"lng":-71.4445768,"tipo":"school"},
{"name":"Escuela Básica Luis Cruz Martínez","lat":-33.0375574,"lng":-71.4019151,"tipo":"school"},
{"name":"Colegio Charles Darwin","lat":-33.0484306,"lng":-71.3878714,"tipo":"school"},
{"name":"Escuela Mariano Latorre","lat":-33.053888,"lng":-71.57818499999999,"tipo":"school"},
{"name":"Colegio Jorge Williams (ymca)","lat":-33.0535716,"lng":-71.5637951,"tipo":"school"},
{"name":"Escuela Vice Almirante Arturo Wilson Navarrete","lat":-33.0453186,"lng":-71.345238,"tipo":"school"},
{"name":"Plaza Simón Bolívar","lat":-33.04551119999999,"lng":-71.61961219999999,"tipo":"park"},
{"name":"Plaza Echaurren","lat":-33.0364159,"lng":-71.63035909999999,"tipo":"park"},
{"name":"Jardín Botánico de Viña del Mar","lat":-33.0485579,"lng":-71.5012752,"tipo":"park"},
{"name":"Quinta Vergara","lat":-33.0280812,"lng":-71.552522,"tipo":"park"},
{"name":"Sendero (Oficina Comercial)","lat":-33.03880239999999,"lng":-71.6281498,"tipo":"park"},
{"name":"Plaza Bismarck","lat":-33.0477665,"lng":-71.6309684,"tipo":"park"},
{"name":"Plaza Victoria","lat":-33.04630390000001,"lng":-71.61988509999999,"tipo":"park"},
{"name":"Plaza O'Higgins","lat":-33.0479891,"lng":-71.60751239999999,"tipo":"park"},
{"name":"Parque Escuela 36","lat":-33.0450912,"lng":-71.5997041,"tipo":"park"},
{"name":"Plaza Vergara","lat":-33.0245231,"lng":-71.5518057,"tipo":"park"},
{"name":"Jardín Infantil Tía Michelle","lat":-33.04898,"lng":-71.5474484,"tipo":"park"},
{"name":"Plaza Izidor Handler","lat":-33.0111301,"lng":-71.5443263,"tipo":"park"},
{"name":"paisajismo viña del mar","lat":-33.01109029999999,"lng":-71.5410838,"tipo":"park"},
{"name":"Alto Mirador Hotel Boutique","lat":-33.0495749,"lng":-71.6296034,"tipo":"restaurant"},
{"name":"Restaurant la Madriguera","lat":-32.9829235,"lng":-71.320408,"tipo":"restaurant"},
{"name":"Viaviacafe Valparaiso","lat":-33.0434307,"lng":-71.627282,"tipo":"restaurant"},
{"name":"Restaurant La Concepción","lat":-33.0418806,"lng":-71.62647750000001,"tipo":"restaurant"},
{"name":"Espíritu Santo","lat":-33.048881,"lng":-71.622372,"tipo":"restaurant"},
{"name":"Tierra de Fuego","lat":-33.0142362,"lng":-71.5560402,"tipo":"restaurant"},
{"name":"Bar La Playa","lat":-33.0382353,"lng":-71.6295439,"tipo":"restaurant"},
{"name":"Farmacias Knop","lat":-33.0454448,"lng":-71.6045196,"tipo":"pharmacy"},
{"name":"Farmacias Ahumada","lat":-32.9708541,"lng":-71.5425917,"tipo":"pharmacy"},
{"name":"Eco Farmacias","lat":-33.044502,"lng":-71.3762182,"tipo":"pharmacy"},
{"name":"Eco Farmacias","lat":-33.0460751,"lng":-71.44285789999999,"tipo":"pharmacy"},
{"name":"Centro Especialidades Farmaceuticas","lat":-33.02476860000001,"lng":-71.55432139999999,"tipo":"pharmacy"},
{"name":"Farmacias Salcobrand","lat":-33.04695600000001,"lng":-71.6172117,"tipo":"pharmacy"},
{"name":"Farmacias del Dr. Simi","lat":-33.0446365,"lng":-71.6235957,"tipo":"pharmacy"},
{"name":"Farmacias Ahumada","lat":-32.9587044,"lng":-71.54419589999999,"tipo":"pharmacy"},
{"name":"Eco Farmacias","lat":-33.04620240000001,"lng":-71.4407769,"tipo":"pharmacy"},
{"name":"Eco Farmacias","lat":-33.0472677,"lng":-71.4419841,"tipo":"pharmacy"},
{"name":"Eco Farmacias","lat":-33.04351500000001,"lng":-71.37385499999999,"tipo":"pharmacy"},
{"name":"Farmacias Galénica","lat":-33.04720710000001,"lng":-71.6152702,"tipo":"pharmacy"},
{"name":"Farmacias Ahumada","lat":-33.02872319999999,"lng":-71.54360539999999,"tipo":"pharmacy"},
{"name":"Farmacias Knop","lat":-33.0249532,"lng":-71.5528515,"tipo":"pharmacy"},
{"name":"Farmacias Ahumada","lat":-33.0224532,"lng":-71.5051151,"tipo":"pharmacy"},
{"name":"Farmacias Salcobrand","lat":-33.04660000000001,"lng":-71.442545,"tipo":"pharmacy"},
{"name":"Farmacias del Dr. Simi","lat":-33.0427316,"lng":-71.62478229999999,"tipo":"pharmacy"},
{"name":"Farmacias Knop","lat":-33.0440918,"lng":-71.6231091,"tipo":"pharmacy"},
{"name":"Farmacia Mapuche Makelawen","lat":-33.04480590000001,"lng":-71.62377579999999,"tipo":"pharmacy"},
{"name":"Mall Marina","lat":-33.00879,"lng":-71.54822990000001,"tipo":"shopping_mall"},
{"name":"Acrilplas","lat":-33.0496014,"lng":-71.61325959999999,"tipo":"shopping_mall"},
{"name":"Salón Sebastian Ferrer Hairvolution Viña del Mar","lat":-33.0150073,"lng":-71.5525676,"tipo":"shopping_mall"},
{"name":"Sociedad Castillo Campusano","lat":-33.04420940000001,"lng":-71.6302767,"tipo":"shopping_mall"},
{"name":"Total Printer","lat":-33.0451487,"lng":-71.6232629,"tipo":"shopping_mall"},
{"name":"Expo Hites","lat":-33.04451239999999,"lng":-71.6239614,"tipo":"shopping_mall"},
{"name":"ReloadPC ltda","lat":-33.0468391,"lng":-71.6212379,"tipo":"shopping_mall"},
{"name":"Cornerplus","lat":-33.04657,"lng":-71.6195037,"tipo":"shopping_mall"},
{"name":"Feria Artesanal Teatro Imperio","lat":-33.0467045,"lng":-71.61648149999999,"tipo":"shopping_mall"},
{"name":"SYG Repuestos Valparaíso","lat":-33.045905,"lng":-71.61246299999999,"tipo":"shopping_mall"},
{"name":"Tienda Panini Valparaiso","lat":-33.0475597,"lng":-71.6130156,"tipo":"shopping_mall"},
{"name":"Portal Valparaíso","lat":-33.0441627,"lng":-71.6049074,"tipo":"shopping_mall"},
{"name":"K libre Merchandising","lat":-33.02504520000001,"lng":-71.5621208,"tipo":"shopping_mall"},
{"name":"Magia y Cristales","lat":-33.02425600000001,"lng":-71.55751800000002,"tipo":"shopping_mall"},
{"name":"Galeria Fontana","lat":-33.02416129999999,"lng":-71.5575154,"tipo":"shopping_mall"},
{"name":"First Security","lat":-33.0233365,"lng":-71.5568941,"tipo":"shopping_mall"},
{"name":"Edificio Casino Plaza","lat":-33.0200345,"lng":-71.5580542,"tipo":"shopping_mall"},
{"name":"Galería Calle de Cristal","lat":-33.024257,"lng":-71.556027,"tipo":"shopping_mall"},
{"name":"Bip Computer","lat":-33.02640139999999,"lng":-71.5537856,"tipo":"shopping_mall"},
{"name":"Bikram Yoga Viña del Mar","lat":-33.0319849,"lng":-71.5619232,"tipo":"gym"},
{"name":"DOJO TAOJEN","lat":-33.12261670000001,"lng":-71.5667926,"tipo":"gym"},
{"name":"Universidad de Valparaiso -Defider","lat":-33.0257817,"lng":-71.6385038,"tipo":"gym"},
{"name":"Estudiantes Quilpue","lat":-33.0573172,"lng":-71.43903879999999,"tipo":"gym"},
{"name":"Centro Vida Fight Wellness","lat":-33.016551,"lng":-71.545512,"tipo":"gym"},
{"name":"Vida Alegre","lat":-33.0403492,"lng":-71.6276402,"tipo":"gym"},
{"name":"La Pecera Sala De Danza Y Acondicionamiento Fisico","lat":-33.04335209999999,"lng":-71.6248035,"tipo":"gym"},
{"name":"Edificio Soserval","lat":-33.0422294,"lng":-71.6237884,"tipo":"gym"},
{"name":"Gimnasio Galaxy","lat":-33.045605,"lng":-71.622472,"tipo":"gym"},
{"name":"Yoga IPA Sala Gandhi","lat":-33.04504660000001,"lng":-71.62323909999999,"tipo":"gym"},
{"name":"Centro de Terapias Integrales Oshun","lat":-33.048869,"lng":-71.626147,"tipo":"gym"},
{"name":"Sport Dinamic Kihanddo","lat":-33.0484038,"lng":-71.613507,"tipo":"gym"},
{"name":"Club deportivo El esfuerzo","lat":-33.0460066,"lng":-71.6484213,"tipo":"gym"},
{"name":"RUTACTIVA GESTIÓN DEPORTIVA","lat":-33.041946,"lng":-71.607942,"tipo":"gym"},
{"name":"Polideportivo Renato Raggio","lat":-33.0212045,"lng":-71.6404939,"tipo":"gym"},
{"name":"Numancia Sports","lat":-33.03221299999999,"lng":-71.588016,"tipo":"gym"},
{"name":"Recreo Fitness","lat":-33.0286843,"lng":-71.57758609999999,"tipo":"gym"},
{"name":"Academia Isvara Yoga y Pole Dance","lat":-33.0285319,"lng":-71.5762307,"tipo":"gym"},
{"name":"Supermercado Mayorista 10","lat":-33.04735,"lng":-71.60920999999999,"tipo":"supermarket"},
{"name":"Unimarc","lat":-33.028792,"lng":-71.55794,"tipo":"supermarket"},
{"name":"Express de Lider Valparaíso","lat":-33.0438841,"lng":-71.6223274,"tipo":"supermarket"},
{"name":"Santa Isabel","lat":-33.036518,"lng":-71.6311614,"tipo":"supermarket"},
{"name":"Supermercado Mayorista 10","lat":-33.0437875,"lng":-71.4183309,"tipo":"supermarket"},
{"name":"Alvi","lat":-33.0446464,"lng":-71.41746909999999,"tipo":"supermarket"},
{"name":"Almacén y Botillería Naval","lat":-33.03149669999999,"lng":-71.6342839,"tipo":"supermarket"},
{"name":"Santa Isabel","lat":-33.0467688,"lng":-71.6081631,"tipo":"supermarket"},
{"name":"Express de Lider Chile Tabacos","lat":-33.0504076,"lng":-71.6093017,"tipo":"supermarket"},
{"name":"Jumbo","lat":-33.044259,"lng":-71.604756,"tipo":"supermarket"},
{"name":"Lider Valparaiso","lat":-33.0486635,"lng":-71.60313459999999,"tipo":"supermarket"},
{"name":"Lider Express","lat":-33.02375749999999,"lng":-71.56030729999999,"tipo":"supermarket"},
{"name":"Santa Isabel","lat":-33.0247569,"lng":-71.5572092,"tipo":"supermarket"},
{"name":"Tiendas de accesorios Moviles Sr Mauro Chile","lat":-33.024242,"lng":-71.552919,"tipo":"supermarket"},
{"name":"Unimarc","lat":-33.0226826,"lng":-71.5495516,"tipo":"supermarket"},
{"name":"Provimarket","lat":-33.0241677,"lng":-71.5489209,"tipo":"supermarket"},
{"name":"Santa Isabel","lat":-33.0246153,"lng":-71.5481736,"tipo":"supermarket"},
{"name":"Minimarket Mercado de Bustall","lat":-33.103719,"lng":-71.66600600000001,"tipo":"supermarket"},
{"name":"Lider Viña del Mar","lat":-33.0068087,"lng":-71.545239,"tipo":"supermarket"},
{"name":"Curauma","lat":-33.1170509,"lng":-71.56966299999999,"tipo":"supermarket"}
]
